[{"code":"NRA-051","name":"51师 (王耀武部)","description":"74th Corps. Jiading.","source":"nationalist","status":"active","type":"infantry","color":"#2980b9","lat":31.350000,"lng":121.100000,"created":1780935692039},{"code":"NRA-074","name":"74军 (俞济时部)","description":"74军主力抵达战场，下辖51师/58师","source":"nationalist","status":"active","type":"infantry","color":"#3498db","lat":31.220000,"lng":121.390000,"created":1780935692041},{"code":"NRA-067-ARR","name":"67师增援 (黄维部)","description":"67th reinforcement arriving at Luodian","source":"nationalist","status":"active","type":"infantry","color":"#2980b9","lat":31.390000,"lng":121.360000,"created":1780935692041},{"code":"NRA-15AG","name":"第十五集团军 (陈诚)","description":"HQ 15th Army Group","source":"nationalist","status":"active","type":"infantry","color":"#9b59b6","lat":31.350000,"lng":121.080000,"created":1780935692041},{"code":"IJA-SNLF","name":"SNLF","description":"","source":"japanese","status":"active","type":"naval","color":"#c0392b","lat":31.250000,"lng":121.490000,"created":1780935692042},{"code":"CPC-N4A","name":"新四军第一支队 (陈毅)","description":"New Fourth Army 1st Det.","source":"cpc","status":"active","type":"infantry","color":"#f1c40f","lat":31.670000,"lng":118.500000,"created":1780935692042},{"code":"IJA-114","name":"第114师团 (末松茂治)","description":"Landed Jinshanwei.","source":"japanese","status":"active","type":"infantry","color":"#e74c3c","lat":30.690000,"lng":121.340000,"created":1780935692042},{"code":"CPC-UG","name":"上海地下党交通站","description":"CPC Shanghai Underground.","source":"cpc","status":"active","type":"civilian","color":"#f1c40f","lat":31.230000,"lng":121.470000,"created":1780935692042},{"code":"IJA-013","name":"第13师团 (荻洲立兵)","description":"Landed Oct Liuhe.","source":"japanese","status":"active","type":"infantry","color":"#e74c3c","lat":31.480000,"lng":121.250000,"created":1780935692042},{"code":"NRA-008","name":"8师 (陶峙岳部)","description":"Jiading-Nanxiang axis.","source":"nationalist","status":"active","type":"infantry","color":"#2980b9","lat":31.370000,"lng":121.260000,"created":1780935692042},{"code":"IJA-011","name":"第11师团 (山室宗武)","description":"Landed Chuanshakou Aug 23.","source":"japanese","status":"active","type":"infantry","color":"#e74c3c","lat":31.480000,"lng":121.290000,"created":1780935692042},{"code":"CPC-8RA","name":"八路军总部 (朱德/彭德怀)","description":"8th Route Army HQ Yan'an.","source":"cpc","status":"active","type":"infantry","color":"#f1c40f","lat":36.560000,"lng":109.490000,"created":1780935692042},{"code":"NRA-088","name":"88师","description":"","source":"nationalist","status":"active","type":"infantry","color":"#2980b9","lat":31.410000,"lng":121.070000,"created":1780935692043},{"code":"IJA-018","name":"第18师团 (牛岛贞雄)","description":"Landed Nov 5 Jinshanwei.","source":"japanese","status":"active","type":"infantry","color":"#e74c3c","lat":30.720000,"lng":121.330000,"created":1780935692043},{"code":"NRA-001","name":"1师 (李铁军部)","description":"Dachang meat grinder.","source":"nationalist","status":"active","type":"infantry","color":"#2980b9","lat":31.400000,"lng":121.060000,"created":1780935692043},{"code":"NRA-067","name":"67师 (黄维部)","description":"18th Army. Luodian.","source":"nationalist","status":"active","type":"infantry","color":"#2980b9","lat":31.440000,"lng":121.200000,"created":1780935692043},{"code":"NRA-087","name":"87师","description":"","source":"nationalist","status":"active","type":"infantry","color":"#2980b9","lat":31.420000,"lng":121.080000,"created":1780935692043},{"code":"NRA-061","name":"61师 (钟松部)","description":"Suzhou Creek west bank.","source":"nationalist","status":"active","type":"infantry","color":"#2980b9","lat":31.270000,"lng":121.280000,"created":1780935692043},{"code":"IJA-3FLT","name":"第三舰队 (长谷川清)","description":"IJN 3rd Fleet.","source":"japanese","status":"active","type":"naval","color":"#c0392b","lat":31.380000,"lng":121.520000,"created":1780935692043},{"code":"IJA-003","name":"第3师团","description":"","source":"japanese","status":"active","type":"infantry","color":"#e74c3c","lat":31.350000,"lng":121.480000,"created":1780935692043},{"code":"NRA-020B","name":"第20独立旅","description":"Hongqiao. Oyama Incident.","source":"nationalist","status":"active","type":"infantry","color":"#2980b9","lat":31.190000,"lng":121.430000,"created":1780935692043},{"code":"NRA-9AG","name":"第九集团军 (张治中)","description":"HQ 9th Army Group","source":"nationalist","status":"active","type":"infantry","color":"#3498db","lat":31.380000,"lng":121.100000,"created":1780935692043},{"code":"IJA-101","name":"第101师团 (伊东政喜)","description":"Landed Sept Wusong.","source":"japanese","status":"active","type":"infantry","color":"#e74c3c","lat":31.320000,"lng":121.470000,"created":1780935692043},{"code":"CPC-115","name":"八路军115师 (林彪部)","description":"8RA 115th Div. Lin Biao.","source":"cpc","status":"active","type":"infantry","color":"#f1c40f","lat":35.150000,"lng":113.200000,"created":1780935692043},{"code":"IJA-SEA","name":"上海派遣军 (松井石根)","description":"HQ Shanghai Expeditionary Army.","source":"japanese","status":"active","type":"infantry","color":"#e74c3c","lat":31.400000,"lng":121.500000,"created":1780935692044},{"code":"IJA-009","name":"第9师团 (吉住良辅)","description":"Landed Oct 31 Suzhou Creek.","source":"japanese","status":"active","type":"infantry","color":"#e74c3c","lat":31.280000,"lng":121.400000,"created":1780935692044},{"code":"SH-FLEET","name":"Shanghai Fleet","description":"","source":"base","status":"active","type":"naval","color":"#3498db","lat":31.200000,"lng":121.500000,"created":1780935692044},{"code":"BJ-GARRISON","name":"Beijing Garrison","description":"","source":"base","status":"active","type":"infantry","color":"#e74c3c","lat":39.900000,"lng":116.400000,"created":1780935692044},{"code":"NRA-011","name":"11师 (彭善部)","description":"18th Army. Luodian.","source":"nationalist","status":"active","type":"infantry","color":"#2980b9","lat":31.480000,"lng":121.050000,"created":1780935692044},{"code":"NRA-055","name":"55师 (李觉部)","description":"Pudong east flank.","source":"nationalist","status":"active","type":"infantry","color":"#2980b9","lat":31.280000,"lng":121.350000,"created":1780935692044},{"code":"NRA-078","name":"78师 (李文部)","description":"Nanxiang defensive line.","source":"nationalist","status":"active","type":"infantry","color":"#2980b9","lat":31.340000,"lng":121.150000,"created":1780935692044},{"code":"NRA-098-S","name":"98师残部","description":"98师宝山阻击后残部，583团全员殉国，师主力伤亡七成","source":"nationalist","status":"active","type":"infantry","color":"#2980b9","lat":31.400000,"lng":121.550000,"created":1780935692044},{"code":"NRA-057","name":"57师 (阮肇昌部)","description":"Suzhou Creek west.","source":"nationalist","status":"active","type":"infantry","color":"#2980b9","lat":31.260000,"lng":121.300000,"created":1780935692044},{"code":"NRA-036","name":"36师 (宋希濂部)","description":"German-trained. Huishan.","source":"nationalist","status":"active","type":"infantry","color":"#2980b9","lat":31.360000,"lng":121.180000,"created":1780935692044},{"code":"NRA-014","name":"14师 (陈时部)","description":"18th Army. Luodian.","source":"nationalist","status":"active","type":"infantry","color":"#2980b9","lat":31.490000,"lng":121.040000,"created":1780935692044},{"code":"IJA-006","name":"第6师团 (谷寿夫)","description":"Landed Nov 5 Jinshanwei.","source":"japanese","status":"active","type":"infantry","color":"#e74c3c","lat":30.700000,"lng":121.350000,"created":1780935692044},{"code":"NRA-058-S","name":"58师残部","description":"58师松江阻击战残余，成功掩护主力西撤，伤亡超七成","source":"nationalist","status":"active","type":"infantry","color":"#2980b9","lat":31.080000,"lng":121.180000,"created":1780935692045}]