[{"code":"IJA-101D","name":"第101师团 (伊东政喜)","description":"第101師団 — 伊東政喜中将。特设师团，9月从上海北部投入作战，配合主力进攻。","source":"japanese","status":"active","type":"infantry","color":"#c0392b","icon":null,"lat":31.320000,"lng":121.580000,"created":1781195589280,"visibleTo":["japanese"],"strength":10000,"maxStrength":10000},{"code":"IJA-11D","name":"第11师团 (山室宗武)","description":"第11師団 — 山室宗武中将。从宝山、川沙口登陆，攻占罗店、浏河，截断国军退路。","source":"japanese","status":"active","type":"infantry","color":"#e74c3c","icon":null,"lat":31.420000,"lng":121.400000,"created":1781195589280,"visibleTo":["japanese"],"strength":10000,"maxStrength":10000},{"code":"NRA-098","name":"98师 (夏楚中)","description":"98师 — 夏楚中中将。坚守宝山县城，姚子青营全营壮烈殉国。","source":"nationalist","status":"active","type":"infantry","color":"#3498db","icon":null,"lat":31.430000,"lng":121.380000,"created":1781195589281,"visibleTo":["nationalist"],"strength":10000,"maxStrength":10000},{"code":"NRA-10AG","name":"第10集团军 (刘建绪)","description":"第10集团军 — 刘建绪中将。湘军部队，负责杭州湾沿岸警戒。","source":"nationalist","status":"active","type":"infantry","color":"#2980b9","icon":null,"lat":30.750000,"lng":121.200000,"created":1781195589282,"visibleTo":["nationalist"],"strength":10000,"maxStrength":10000},{"code":"NRA-19AG","name":"第19集团军 (薛岳)","description":"第19集团军 — 薛岳上将。粤军部队，负责大场—蕴藻浜防线。","source":"nationalist","status":"active","type":"infantry","color":"#2980b9","icon":null,"lat":31.300000,"lng":121.380000,"created":1781195589282,"visibleTo":["nationalist"],"strength":10000,"maxStrength":10000},{"code":"NRA-004A","name":"第4军 (吴奇伟)","description":"第4军 — 吴奇伟中将。北伐铁军后裔，粤军精锐。坚守大场阵地多日。","source":"nationalist","status":"active","type":"infantry","color":"#2980b9","icon":null,"lat":31.320000,"lng":121.370000,"created":1781195589282,"visibleTo":["nationalist"],"strength":10000,"maxStrength":10000},{"code":"IJA-SNLF","name":"上海海军特别陆战队","description":"上海海軍特別陸戦隊 — 驻上海虹口的海军陆战队约5000人，率先与国军交火。","source":"japanese","status":"active","type":"naval","color":"#e74c3c","icon":null,"lat":31.270000,"lng":121.490000,"created":1781195589280,"visibleTo":["japanese"],"strength":10000,"maxStrength":10000},{"code":"NRA-15AG","name":"第15集团军 (陈诚)","description":"第15集团军 — 陈诚上将。下辖98师、18军、74军等。9月抵达，负责左翼罗店—宝山防线。","source":"nationalist","status":"active","type":"infantry","color":"#2980b9","icon":null,"lat":31.350000,"lng":121.350000,"created":1781195589281,"visibleTo":["nationalist"],"strength":10000,"maxStrength":10000},{"code":"NRA-018A","name":"18军 (罗卓英)","description":"18军 — 罗卓英中将。土木系骨干。在罗店与日军反复争夺，阵地多次易手。","source":"nationalist","status":"active","type":"infantry","color":"#f39c12","icon":null,"lat":31.390000,"lng":121.330000,"created":1781195589281,"visibleTo":["nationalist"],"strength":10000,"maxStrength":10000},{"code":"IJA-AAF","name":"陆军航空队 (德川好敏)","description":"陸軍航空隊 — 从台湾和朝鲜起飞，对上海、南京实施战略轰炸。","source":"japanese","status":"active","type":"air","color":"#c0392b","icon":null,"lat":30.000000,"lng":122.000000,"created":1781195589281,"visibleTo":["japanese"],"strength":10000,"maxStrength":10000},{"code":"NRA-001A","name":"第1军 (胡宗南)","description":"第1军 — 胡宗南中将。黄埔嫡系，10月初投入蕴藻浜阵地。","source":"nationalist","status":"active","type":"infantry","color":"#e67e22","icon":null,"lat":31.300000,"lng":121.330000,"created":1781195589282,"visibleTo":["nationalist"],"strength":10000,"maxStrength":10000},{"code":"NRA-067A","name":"67军 (吴克仁)","description":"67军 — 吴克仁中将。东北军。在苏州河南岸阻击战中军长吴克仁阵亡。","source":"nationalist","status":"active","type":"infantry","color":"#2980b9","icon":null,"lat":31.220000,"lng":121.300000,"created":1781195589282,"visibleTo":["nationalist"],"strength":10000,"maxStrength":10000},{"code":"IJA-9D","name":"第9师团 (吉住良辅)","description":"第9師団 — 吉住良輔中将。从吴淞登陆后向大场、江湾方向进攻。","source":"japanese","status":"active","type":"infantry","color":"#e74c3c","icon":null,"lat":31.350000,"lng":121.480000,"created":1781195589280,"visibleTo":["japanese"],"strength":10000,"maxStrength":10000},{"code":"IJA-3D","name":"第3师团 (藤田进)","description":"第3師団 — 藤田進中将。常设师团，从吴淞口登陆，沿黄浦江西岸向南推进。","source":"japanese","status":"active","type":"infantry","color":"#e74c3c","icon":null,"lat":31.380000,"lng":121.520000,"created":1781195589280,"visibleTo":["japanese"],"strength":10000,"maxStrength":10000},{"code":"NRA-088","name":"88师 (孙元良)","description":"88师 — 孙元良中将。德械师，坚守闸北四行仓库（谢晋元团）。在八字桥率先与日军交火。","source":"nationalist","status":"active","type":"infantry","color":"#2980b9","icon":null,"lat":31.245000,"lng":121.460000,"created":1781195589281,"visibleTo":["nationalist"],"strength":10000,"maxStrength":10000},{"code":"NRA-087","name":"87师 (王敬久)","description":"87师 — 王敬久中将。德械调整师。负责攻击虹口日军海军陆战队司令部。","source":"nationalist","status":"active","type":"infantry","color":"#2980b9","icon":null,"lat":31.260000,"lng":121.470000,"created":1781195589281,"visibleTo":["nationalist"],"strength":10000,"maxStrength":10000},{"code":"NRA-CAF","name":"中国空军 (周至柔)","description":"中国空军 — 周至柔。霍克III战斗机为主力，8·14笕桥空战击落日军6架轰炸机。","source":"nationalist","status":"active","type":"air","color":"#3498db","icon":null,"lat":30.230000,"lng":120.230000,"created":1781195589282,"visibleTo":["nationalist"],"strength":10000,"maxStrength":10000},{"code":"NRA-SHGC","name":"淞沪警备司令部 (杨虎)","description":"淞沪警备司令部 — 杨虎。上海保安总团及警察部队配合正规军作战。","source":"nationalist","status":"active","type":"infantry","color":"#7f8c8d","icon":null,"lat":31.230000,"lng":121.470000,"created":1781195589282,"visibleTo":["nationalist"],"strength":10000,"maxStrength":10000},{"code":"NRA-021AG","name":"第21集团军 (廖磊)","description":"第21集团军 — 廖磊中将。桂军主力，10月从广西赶到。在大场反击战中伤亡过半。","source":"nationalist","status":"active","type":"infantry","color":"#9b59b6","icon":null,"lat":31.280000,"lng":121.360000,"created":1781195589282,"visibleTo":["nationalist"],"strength":10000,"maxStrength":10000},{"code":"IJA-13DB","name":"第13师团 (荻洲立兵)","description":"第13師団 — 荻洲立兵中将。10月底从杭州湾北岸金山卫登陆，包抄国军南翼。","source":"japanese","status":"active","type":"infantry","color":"#c0392b","icon":null,"lat":30.700000,"lng":121.300000,"created":1781195589280,"visibleTo":["japanese"],"strength":10000,"maxStrength":10000},{"code":"NRA-074A","name":"74军 (俞济时)","description":"74军 — 俞济时中将。后来成为国军五大主力之首。罗店血肉磨坊，伤亡惨重。","source":"nationalist","status":"active","type":"infantry","color":"#f39c12","icon":null,"lat":31.380000,"lng":121.320000,"created":1781195589281,"visibleTo":["nationalist"],"strength":10000,"maxStrength":10000},{"code":"NRA-9AG","name":"第9集团军 (张治中)","description":"第9集团军 — 张治中上将。下辖87师、88师、36师等精锐德械师。率先投入淞沪战场。","source":"nationalist","status":"active","type":"infantry","color":"#2980b9","icon":null,"lat":31.220000,"lng":121.420000,"created":1781195589281,"visibleTo":["nationalist"],"strength":10000,"maxStrength":10000},{"code":"IJA-SEA","name":"上海派遣军 (松井石根)","description":"上海派遣軍 — 松井石根大将。下辖第3、第9、第11、第101师团，总兵力约20万。","source":"japanese","status":"active","type":"infantry","color":"#c0392b","icon":null,"lat":31.250000,"lng":121.550000,"created":1781195589276,"visibleTo":["japanese"],"strength":10000,"maxStrength":10000},{"code":"IJA-NF3","name":"第3舰队 (长谷川清)","description":"第3艦隊 — 長谷川清中将。黄浦江及长江口舰炮支援，航空母舰加贺、龙骧舰载机轰炸。","source":"japanese","status":"active","type":"naval","color":"#3498db","icon":null,"lat":31.150000,"lng":121.850000,"created":1781195589280,"visibleTo":["japanese"],"strength":10000,"maxStrength":10000},{"code":"CPC-N4A1","name":"新四军 (叶挺/项英)","description":"新编第四军 — 叶挺军长。南方八省游击队改编，在苏南敌后开展游击战。","source":"cpc","status":"active","type":"infantry","color":"#f1c40f","icon":null,"lat":30.500000,"lng":119.800000,"created":1781195589282,"visibleTo":["cpc"],"strength":10000,"maxStrength":10000},{"code":"NRA-008AG","name":"第8集团军 (张发奎)","description":"第8集团军 — 张发奎上将。负责浦东及杭州湾北岸防御。","source":"nationalist","status":"active","type":"infantry","color":"#2980b9","icon":null,"lat":30.900000,"lng":121.400000,"created":1781195589282,"visibleTo":["nationalist"],"strength":10000,"maxStrength":10000},{"code":"NRA-036","name":"36师 (宋希濂)","description":"36师 — 宋希濂中将。德械师，汇山码头攻坚战中伤亡惨重仍在继续冲锋。","source":"nationalist","status":"active","type":"infantry","color":"#2980b9","icon":null,"lat":31.255000,"lng":121.500000,"created":1781195589281,"visibleTo":["nationalist"],"strength":10000,"maxStrength":10000}]